序号,名称,高德ID,等级,类型标签,详细地址,经度,纬度,电话号码,省份,城市,区县,官方网站,营业时间,图片链接(分号分隔),介绍
1,布达拉宫,B037B01F68,5A,风景名胜;风景名胜;世界遗产,北京中路35号,91.118463,29.654471,4008649111,西藏自治区,拉萨市,城关区,www.potalapalace.cn,,http://store.is.autonavi.com/showpic/abc43f4373ca7c3cd59e884283c31051;http://store.is.autonavi.com/showpic/9e29ebc1fbe5bb29f2fc83aa17bdb71d;http://store.is.autonavi.com/showpic/c3e5ab3969cc820a3deef36bca70ea7b,世界上海拔最高的宫殿、城堡和寺院一体的宏伟建筑，藏族古建筑艺术的精华。
2,大昭寺,B037B00F2D,5A,风景名胜;风景名胜;寺庙道观,八廓西街2号,91.132802,29.650209,[],西藏自治区,拉萨市,城关区,[],,http://store.is.autonavi.com/showpic/df5a8b4a1a882cedaebee0a32f516e7c;http://store.is.autonavi.com/showpic/4d8cea6f56858f38e4a7247d37d83a7f;http://store.is.autonavi.com/showpic/7f02d79802c5cf3d86762e0bcd7b31b2,藏传佛教信徒朝圣的终点，在藏传佛教中拥有至高无上的地位。
3,扎什伦布寺,B037C002S6,5A,风景名胜;风景名胜;寺庙道观,朗卡路1号,88.871941,29.265392,0892-8828370,西藏自治区,日喀则市,桑珠孜区,[],,http://store.is.autonavi.com/showpic/eaf2ab7e747a5e10a2c3157237080c84;http://store.is.autonavi.com/showpic/123581f40244684cc8edae5a012232ea;http://store.is.autonavi.com/showpic/25557d8bc7efb6cc0a746c6e53d62e1b,日喀则地区最大的寺庙，历代班禅额尔德尼的驻锡地，格鲁派六大寺院之一。
4,巴松措,B037E0M3PB,5A,风景名胜;风景名胜;风景名胜,靠近达切拉观光台,93.967899,30.007874,0894-5717745,西藏自治区,林芝市,工布江达县,[],,http://store.is.autonavi.com/showpic/5cf852159a40e956aa76b02bd2de213f;http://store.is.autonavi.com/showpic/247a0d0948f3b2b93486da91007ffe66;http://store.is.autonavi.com/showpic/37369a748a47e17737d266ae8b499395,红教的一处著名神湖和圣地，湖水清澈碧绿，四周青山如黛。
5,雅鲁藏布大峡谷,B037E004U9,5A,风景名胜;风景名胜;国家级景点,派镇,94.937467,29.612778,0894-5483611,西藏自治区,林芝市,米林市,[],,http://store.is.autonavi.com/showpic/c39f3403de7d84e33ebff0316e8aa159;http://store.is.autonavi.com/showpic/32d99b5e80ca42a714a3ed3f892f6a14;http://store.is.autonavi.com/showpic/a398e4eb7351d788a7ce0bb19cf902f8,地球上最深的峡谷，被誉为“人类最后的秘境”，景色壮丽。
6,罗布林卡,B037B01C57,4A,风景名胜;风景名胜;世界遗产,罗堆东路,91.092479,29.651619,[],西藏自治区,拉萨市,城关区,[],,http://store.is.autonavi.com/showpic/6795bf614b062fbbcd95c1c1f17d03a7;http://store.is.autonavi.com/showpic/12297e331439ac7ee0030097f2f04bbc;http://store.is.autonavi.com/showpic/29b0ea9d90010a7616658806138c2eef,历代达赖喇嘛的夏宫，西藏人造园林中规模最大、风景最佳的园林。
7,西藏博物馆,B037B00866,4A,科教文化服务;博物馆;博物馆,罗布林卡路34号,91.098894,29.648382,0891-6839222;0891-6835244,西藏自治区,拉萨市,城关区,[],,http://store.is.autonavi.com/showpic/92dbc5423b126b7884d1295077870f6d;http://store.is.autonavi.com/showpic/6216c6c6d0f25fba7ca6e64ab3e85329;http://store.is.autonavi.com/showpic/09b1327f9d186d2433b690ee8c814a13,西藏唯一的综合性国家一级博物馆，展示了西藏的历史文化和民俗风情。
8,哲蚌寺,B037B0056D,4A,风景名胜;风景名胜;寺庙道观,当巴路与扎基西路交叉口东140米,91.049889,29.673206,[],西藏自治区,拉萨市,城关区,[],,http://store.is.autonavi.com/showpic/928935f92625f21c61dc40ef3e64f67a;http://store.is.autonavi.com/showpic/c2d28383a6f34f0bd902892b8d286c79;http://store.is.autonavi.com/showpic/b192cee341ae7c70e31bc49ac5084630,藏传佛教格鲁派六大寺院中规模最大的一座，每年雪顿节都会举行盛大的展佛活动。
9,西藏牦牛博物馆,B0G1JK4G6U,4A,科教文化服务;博物馆;博物馆,柳梧乡柳梧新区察古大道16号,91.088343,29.620262,0891-6380000,西藏自治区,拉萨市,堆龙德庆区,[],,http://store.is.autonavi.com/showpic/30ffb6effdfae76ad3ae07424fa8a3bf;http://store.is.autonavi.com/showpic/fc015275307bfe72a7e7d59d6ff225f8;http://store.is.autonavi.com/showpic/ecd55db9e89b23aab21408ecafa38233,世界上唯一一座以牦牛为主题的博物馆，展示牦牛与藏族人民的深厚渊源。
10,西藏自然科学博物馆,B0FFH4SLBL,4A,科教文化服务;博物馆;博物馆,纳金街道藏大东路9号,91.182052,29.646855,0891-6401062,西藏自治区,拉萨市,城关区,[],,http://store.is.autonavi.com/showpic/fe41f27428bb2020ebef8f347f6d616a;http://store.is.autonavi.com/showpic/68f6a43b009b64d7a9dff63f7e6904f4;http://store.is.autonavi.com/showpic/696ac7bae3b603abfaa03967eaa1ea4f,集自然、科技、展览于一体，展示青藏高原独特的自然生态。
11,文成公主文化旅游主题园,B0FFKFEU17,4A,风景名胜;风景名胜;国家级景点,蔡公堂乡慈觉林文成大道,91.146253,29.623845,[],西藏自治区,拉萨市,城关区,[],,http://store.is.autonavi.com/showpic/1934a84936a344bdf8bb53f4c0213de7;http://store.is.autonavi.com/showpic/a50ae197d0bc693f10f9e4b05ff7ceca;http://store.is.autonavi.com/showpic/e0370c86105698998b7207b0b7c274d0,以大型实景剧《文成公主》为核心，展示唐蕃古道文化和藏族风情。
12,象雄美朵景区,B0FFLBVCRT,4A,风景名胜;风景名胜;风景名胜,乃琼镇波玛村109国道旁,90.866361,29.7046,0891-6791999,西藏自治区,拉萨市,堆龙德庆区,[],,http://store.is.autonavi.com/showpic/f1960c68b890f6f9cf53f34803ed000e;http://store.is.autonavi.com/showpic/211dd9c565bcb972eeeab70373cbccfa;http://store.is.autonavi.com/showpic/2e11742e0786df75935f86b7f23bc1fb,集自然风光、民俗体验、休闲度假为一体的综合性景区。
13,纳木措国家风景区,B0FFFS3L3J,4A,风景名胜;风景名胜;风景名胜,当扎路,91.129505,30.544918,[],西藏自治区,拉萨市,当雄县,[],,http://store.is.autonavi.com/showpic/75d2306cb0ade904bad4ce0afb1d34c4;http://store.is.autonavi.com/showpic/7ade357c3c8219b54216774122548b23;http://store.is.autonavi.com/showpic/dabdaa4a1daa63aa21933e8a1158055c,西藏“三大圣湖”之一，海拔最高的咸水湖，景色绝美。
14,藏域星球天文体验馆,B0FFLLA035,4A,科教文化服务;天文馆;天文馆,拉萨经济技术开发区林琼岗路,91.014148,29.620567,0891-6678523,西藏自治区,拉萨市,堆龙德庆区,[],,http://store.is.autonavi.com/showpic/4349fd3758e7a94508ac5992b43e2e6f;http://store.is.autonavi.com/showpic/3f1418beb6e35ba50cc77bb597089824;http://store.is.autonavi.com/showpic/a1860fd488d41046af3ea19a8c950a21,以天文为主题的科普体验馆，探索宇宙奥秘。
15,秀色才纳·雪域花谷,B0FFKZFJSV,4A,风景名胜;风景名胜相关;旅游景点,尼达路122号,90.949076,29.438393,17308986256;19108985008,西藏自治区,拉萨市,曲水县,[],,https://aos-comment.amap.com/B0KR4SUJGT/comment/content_media_external_file_1000038380_ss__1758883041903_99003935.jpg;http://store.is.autonavi.com/showpic/21aad5ed6dcdbb762d1dfcb6694be6f6;https://aos-comment.amap.com/B0KR4SUJGT/comment/content_media_external_file_10979_ss__1757586078655_00536867.jpg,高原上的现代农业观光园，四季花开，景色宜人。
16,西藏野生动物保护园,B0FFI12BRY,4A,风景名胜;公园广场;动物园,曲水镇阔姆组沿边路2号,90.780022,29.370921,16689018808,西藏自治区,拉萨市,曲水县,[],,https://aos-comment.amap.com/B0FFI12BRY/comment/0C786725_5783_49F4_B1FC_9A04AB2C0773_L0_001_2000_112_1763516946294_87415804.jpg;https://aos-comment.amap.com/B0FFI12BRY/comment/content_media_external_file_1000005762_ss__1754469715549_71602317.jpg;https://aos-comment.amap.com/B0FFI12BRY/comment/content_media_external_file_1000005736_ss__1754469715551_87866514.jpg,世界上海拔最高的野生动物园，汇集了雪豹、藏羚羊等珍稀高原动物。
17,南山公园,B0FFI7J66Z,4A,风景名胜;风景名胜相关;旅游景点,川藏公路,91.118424,29.63312,[],西藏自治区,拉萨市,城关区,[],,https://aos-comment.amap.com/B0FFI7J66Z/comment/content_media_external_file_118446_ss__1752393973085_37648509.jpg;https://aos-comment.amap.com/B0FFI7J66Z/comment/4BD3A94B_5988_4F98_A42C_431CE731C3FE_L0_001_1126_200_1753352581418_56474992.jpg;https://aos-comment.amap.com/B0FFI7J66Z/comment/3F840A0B_FCD1_4515_8C04_BC3214D6B4EC_L0_001_1500_200_1750897247736_46196425.jpg,拉萨市民休闲的好去处，登高可俯瞰拉萨全景和布达拉宫。
18,拉萨市中华文化公园,B0H10HVY44,4A,风景名胜;公园广场;公园,拉萨河两岸,91.057143,29.630776,[],西藏自治区,拉萨市,城关区,[],,https://aos-comment.amap.com/B0H10HVY44/comment/6ee473e2ff4dc679b4fbaa9d5e5e2907_2048_2048_80.jpg;https://comment-oss-online.oss-cn-wulanchabu.aliyuncs.com/B0H10HVY44/comment/content_media_external_images_media_2652409_1652276490909_a8f6fe7e.jpg;http://store.is.autonavi.com/showpic/1c986f61f3d5ab6e1f4139407ae25f2c,展示中华优秀传统文化和西藏地方特色文化的公园。
19,萨迦寺颇章萨巴,B0FFH8ZMRJ,4A,购物服务;专卖店;珠宝首饰工艺品,八廓街德林巷33号,91.131884,29.649437,[],西藏自治区,拉萨市,城关区,[],,https://aos-comment.amap.com/B0FFH8ZMRJ/comment/990fa07d7d2e7f1c8ab2a6efbe7b5d68_2048_2048_80.jpg;https://aos-comment.amap.com/B0FFH8ZMRJ/comment/3b26d3b01428f1fdb4c42ba4b3539081_2048_2048_80.jpg;https://aos-comment.amap.com/B0FFH8ZMRJ/comment/02b4a4b7749fee70495aa965f44509b8_2048_2048_80.jpg,萨迦寺的重要组成部分，历史悠久，文物丰富。
20,萨迦古城景区,B0FFKZF9TJ,4A,风景名胜;风景名胜;国家级景点,萨迦镇格桑西路,88.020502,28.903271,[],西藏自治区,日喀则市,萨迦县,[],,http://store.is.autonavi.com/showpic/54f66d774fd872e103d4c8e71e2b5a4f;http://store.is.autonavi.com/showpic/1e747ee0057be132bb16869f7449dc7f;http://store.is.autonavi.com/showpic/1d091a2e7faffe56c340bfd6a72f53ab,以萨迦寺为核心，保留了浓郁的藏族传统建筑风格和文化氛围。
21,珠峰小区,B0LB2ZPB6L,4A,商务住宅;住宅区;住宅小区,太阳岛一路与珠峰路交叉口西南100米,91.119409,29.644004,[],西藏自治区,拉萨市,城关区,[],,,位于拉萨的住宅区，周边配套设施完善。
22,国门巴夏景区游客服务中心,B0KD0SYBVN,4A,生活服务;生活服务场所;生活服务场所,亚乃路东北侧,88.9206,27.448232,[],西藏自治区,日喀则市,亚东县,[],,http://store.is.autonavi.com/showpic/7b9ad88543119ed5267af9f2ee2a83cf;https://aos-comment.amap.com/B0KD0SYBVN/comment/7366266E_CD30_48E0_B552_4D4AA38F9533_L0_001_2040_153_1754233366238_31182368.jpg;https://aos-comment.amap.com/B0KD0SYBVN/comment/5C03AC06_94D0_4BC2_AC50_1A0A8721CEFA_L0_001_1536_204_1754233366238_21098345.jpg,亚东县边境旅游的重要服务点，体验边境风情。
23,江孜宗山英雄纪念碑,B037C0025X,4A,风景名胜;风景名胜;纪念馆,白局路,89.60296,28.911871,[],西藏自治区,日喀则市,江孜县,[],,https://store.is.autonavi.com/showpic/11c32bdfab7368587e9e47dc8b2f760f;https://store.is.autonavi.com/showpic/bf8788da7b96ba5f77ebf8e7d7d0c4c2;http://store.is.autonavi.com/showpic/47b327b49d4040db84af2cdc9a868861,纪念1904年江孜军民抗击英国侵略者的英雄事迹。
24,朗东庄园,B0JD6R5D41,4A,体育休闲服务;休闲场所;休闲场所,,89.664354,28.726747,[],西藏自治区,日喀则市,康马县,[],,https://aos-comment.amap.com/B0JD6R5D41/comment/file_media_Photo_8709_IMG_1749986765_7434_IMG_20250615_192425_jpg_ss_2.jpg;https://store.is.autonavi.com/showpic/a16b2854d7342d3c996f5594b287e122;http://store.is.autonavi.com/showpic/e127472e403301fdd2ae80ef9b55fb2d,西藏封建农奴制时期的贵族庄园，保留了完整的庄园建筑和生活场景。
25,吉隆沟景区,B0FFHKX8DN,4A,风景名胜;风景名胜相关;旅游景点,吉隆县沟景区附近,85.279926,28.650826,[],西藏自治区,日喀则市,吉隆县,[],,https://aos-comment.amap.com/B0FFHKX8DN/comment/3fed352110006081cf8e47d8dd582cfb_2048_2048_80.jpg;http://store.is.autonavi.com/showpic/177da839a6cb0e1bbd966ec81750bfde;http://store.is.autonavi.com/showpic/3f2d376c940d9be1c2989cb9e5fa7f9b,被誉为“珠峰后花园”，自然风光秀丽，气候宜人。
26,崇巴雍错风景区,B0G0PLFDDV,4A,风景名胜;风景名胜相关;旅游景点,萨玛达乡,89.658424,28.200307,[],西藏自治区,日喀则市,康马县,[],,http://store.is.autonavi.com/showpic/71bee137411c4fd6f0390919bc4fe6dc;http://store.is.autonavi.com/showpic/e72e003ee1ed7a72843918d08bf28bc8;https://aos-comment.amap.com/B0G0PLFDDV/comment/6687b163dfa0ae0fb7759c3d8103ea96_2048_2048_80.jpg,美丽的淡水湖，湖畔草场丰美，是观鸟和摄影的好去处。
27,奇林峡景区,B0GDXHQQIK,4A,风景名胜;风景名胜;风景名胜,琼孜乡牧村,88.124522,28.117847,15708008222,西藏自治区,日喀则市,定结县,[],,http://store.is.autonavi.com/showpic/29059cd2ea30b9ada5f6cd22d5e0b2ea;http://store.is.autonavi.com/showpic/f2414cb7d483d241800f80ecb348877c;http://store.is.autonavi.com/showpic/b0963b8051c459122392d12f0403f7a3,独特的土林地貌，经过千百年风雨侵蚀形成，蔚为壮观。
28,班公湖景区,B0381003OW,4A,风景名胜;风景名胜相关;旅游景点,日土县班公湖度假村(近新藏公路219号国道),79.809666,33.556738,[],西藏自治区,阿里地区,日土县,[],,https://aos-comment.amap.com/B0381003OW/comment/content_media_external_images_media_110195_ss__1731154097368_25121378.jpg;https://aos-comment.amap.com/B0381003OW/comment/content_media_external_file_1000037452_ss__1757165851867_53798657.jpg;https://aos-comment.amap.com/B0381003OW/comment/14C9DBDF_53A4_4433_B34B_94784471F9BB_L0_001_2000_150_1754409344629_58310374.jpg,著名的界湖，湖水清澈，鸟类众多，自然生态良好。
29,札达县,B038100DSW,4A,地名地址信息;普通地名;区县级地名,札达县,79.807096,31.479882,[],西藏自治区,阿里地区,札达县,[],,https://aos-comment.amap.com/B038100DSW/comment/content_media_external_images_media_100001799_1726675845838_80449591.jpg;https://store.is.autonavi.com/showpic/533bd723e6adb5af1e619eb274ec682c;https://aos-comment.amap.com/B038100DSW/comment/content_media_external_images_media_100001799_1726675845836_91645883.jpg,以土林地貌和古格王朝遗址闻名，历史文化底蕴深厚。
30,昌珠寺,B037D003A1,4A,风景名胜;风景名胜;寺庙道观,雅区乃东区2公里,91.773235,29.190684,[],西藏自治区,山南市,乃东区,[],,http://store.is.autonavi.com/showpic/29306eb38efc88d4fe90cb543d9d2416;http://store.is.autonavi.com/showpic/2d72061b146e703bf4e1fafecc09dfc2;http://store.is.autonavi.com/showpic/8ce0b752b1226fd14329c3c8cc8880d7,西藏历史上第一座佛堂，传说由文成公主主持修建。
31,玉麦自然人文景区,B0L119M1AA,4A,风景名胜;风景名胜;风景名胜,玉麦乡重庆江湖宾馆西南侧100米,93.0736,28.629555,[],西藏自治区,山南市,隆子县,[],,,中国人口最少的行政乡，体验边境守边人的生活。
32,桑耶寺,B037D002GQ,4A,风景名胜;风景名胜;国家级景点,桑耶镇,91.50373,29.32359,0893-7836423;12301,西藏自治区,山南市,扎囊县,[],,http://aos-cdn-image.amap.com/sns/ugccomment/9f869437-0e7c-4a54-903d-975b49d1c038.jpg;http://store.is.autonavi.com/showpic/35471fc2cc792679e825700b000ca252;http://store.is.autonavi.com/showpic/209d5b5c7567ef6e66f794fb8bbac032,西藏第一座“佛、法、僧”三宝俱全的寺庙，建筑风格独特。
33,羊卓雍措,B0FFFQ6BLC,4A,地名地址信息;自然地名;湖泊,浪卡子县,90.681079,28.930442,[],西藏自治区,山南市,浪卡子县,[],,https://aos-comment.amap.com/B0FFFQ6BLC/comment/content_media_external_images_media_26502_ss__1729334160421_13578713.jpg;https://aos-comment.amap.com/B0FFFQ6BLC/comment/89A871D5_DE75_4F23_9D33_4D26C71DBF00_L0_001_2000_107_1757081104180_65452197.jpg;http://store.is.autonavi.com/showpic/bc7328167ff6d761912bcb671b7fc61c,西藏“三大圣湖”之一，湖水颜色随光线变化，美如冠玉。
34,雍布拉康,B037D0042O,4A,风景名胜;风景名胜;寺庙道观,昌珠镇扎西次日山上(泽当镇东南11公里处),91.803854,29.139428,[],西藏自治区,山南市,乃东区,[],,http://store.is.autonavi.com/showpic/d9637aa1d8f562c2cb049a1397551a19;http://store.is.autonavi.com/showpic/3f218f2f10d028e47a13f0a967fab6fd;https://aos-comment.amap.com/B037D0042O/comment/content_media_external_file_1000014616_ss__1767002811601_80465663.jpg,西藏历史上第一座宫殿，屹立于山顶，气势雄伟。
35,当惹雍错景区观景台,B0JK47TE7P,4A,风景名胜;风景名胜;风景名胜,,86.803004,31.183148,[],西藏自治区,那曲市,尼玛县,[],,https://store.is.autonavi.com/showpic/77f68014654e436119e4bd20ffd770f9;http://store.is.autonavi.com/showpic/cf893bf4b53f2a04dd3fd78e52b2c9e8;https://store.is.autonavi.com/showpic/2f11aefce711e759f7b06ed23c8a3896,苯教圣湖，湖水深邃，传说神秘。
36,中国西藏文化旅游创意园区,B0FFG6Q4X3,4A,商务住宅;产业园区;产业园区,鲁如村,91.141571,29.615196,[],西藏自治区,拉萨市,城关区,[],,,集文化创意、旅游休闲、演艺娱乐为一体的园区。
37,萨普神山游客中心,B0K3YZC0AD,4A,生活服务;信息咨询中心;服务中心,桑达寺附近,93.794692,31.080307,[],西藏自治区,那曲市,比如县,[],,http://store.is.autonavi.com/showpic/464e19a1b1347a47562b68d6ad237fb6;https://aos-comment.amap.com/B0K3YZC0AD/comment/content_media_external_file_86745_ss__1760230214879_33052693.jpg;https://aos-comment.amap.com/B0K3YZC0AD/comment/content_media_external_file_87093_ss__1760230214823_85223655.jpg,萨普神山脚下的服务中心，提供旅游咨询和休憩。
38,民俗文化旅游购物广场,B0G0KDSG2L,4A,购物服务;购物相关场所;购物相关场所,宇拓路民俗文化旅游购物广场39号,91.12676,29.649696,[],西藏自治区,拉萨市,城关区,[],,http://store.is.autonavi.com/showpic/4d0a2a30a13705d9a61ff45c1e293355;http://store.is.autonavi.com/showpic/8285e2ba85016d43453502570f940ba1;http://store.is.autonavi.com/showpic/bfadf9c00d15663560b9529a1de7e51a,购买藏族特色手工艺品和纪念品的场所。
39,康巴花都(建设中),B0IKDC8RFT,4A,风景名胜;风景名胜;风景名胜,527乡道,96.610423,31.301027,[],西藏自治区,昌都市,类乌齐县,[],,https://store.is.autonavi.com/showpic/14ac30eb5c33f74e9f10964c8d33702f;https://aos-comment.amap.com/B0IKDC8RFT/comment/16527c9a1a34c3056aadbdcd14ef3ea3_2048_2048_80.jpg;https://aos-comment.amap.com/B0IKDC8RFT/comment/1ac2b3706251e08b18ce9d67987eb0b9_2048_2048_80.jpg,类乌齐县打造的花卉主题旅游区。
40,三色湖,B0FFL8T63O,4A,风景名胜;风景名胜;风景名胜,边坝镇境内,94.776347,30.72434,[],西藏自治区,昌都市,边坝县,[],,https://aos-comment.amap.com/B0FFL8T63O/comment/content_media_external_images_media_105245_1660177222779_19aac798.jpg;https://aos-comment.amap.com/B0FFL8T63O/comment/e7313aff4c6938ef9ac537eb0a28efc7_2048_2048_80.jpg;http://store.is.autonavi.com/showpic/edcdb384928b9b441bdaf3b56fa0dc9b,由黑、白、黄三种颜色的湖泊组成，色彩奇特。
41,昌都市,B037F00LGM,4A,地名地址信息;普通地名;地市级地名,卡若区,97.170425,31.142879,[],西藏自治区,昌都市,卡若区,[],,http://store.is.autonavi.com/showpic/0ee294e7128a449b6932bca4346068fb;http://store.is.autonavi.com/showpic/b7be98076e2415fcf45af069c6f7cc38;http://store.is.autonavi.com/showpic/5fc0aa11723e397c5ee0ce876d5f21d4,西藏东部的中心城市，藏东明珠，康巴文化的核心区。
42,卡定沟景区,B0GDFXY52R,4A,风景名胜;风景名胜;国家级景点,八一镇,94.174626,29.762009,[],西藏自治区,林芝市,巴宜区,[],,http://store.is.autonavi.com/showpic/baaf8862f3b0bdfacfe876292808c820;http://store.is.autonavi.com/showpic/91a2f1b583a1f5d5a75f0a65ad47785b;http://store.is.autonavi.com/showpic/8b12c80703e159f7d5ceb8bf82ef5793,以落差近200米的天佛瀑布闻名，山势险要，景色秀丽。
43,世界柏树王园林风景区,B0FFFA3VZJ,4A,风景名胜;风景名胜;风景名胜,八一镇巴结村,94.403252,29.619664,[],西藏自治区,林芝市,巴宜区,[],,http://store.is.autonavi.com/showpic/70461c794f5845c9f42aa4b6bae4c2ed;http://store.is.autonavi.com/showpic/a83b61f43dc92f393d9fe8019bb7c2e5;http://store.is.autonavi.com/showpic/3c1003eb6d7eeb1630d6ea9460e32b38,拥有2500多年树龄的巨柏，被称为“世界柏树王”。
44,米堆冰川景区观景台,B0GDLAH1L3,4A,风景名胜;风景名胜;观景点,米堆冰川景区,96.500155,29.467889,[],西藏自治区,林芝市,波密县,[],,https://aos-comment.amap.com/B0GDLAH1L3/comment/16b3521fc7e68a5c41bc859e63a1d679_2048_2048_80.jpg;http://aos-cdn-image.amap.com/sns/ugccomment/a7f693a5-c97b-4235-8fc2-6340c6622f47.jpg;https://aos-comment.amap.com/B0GDLAH1L3/comment/65f6eb34bc8aa508805c6f6d28b2ee9b_2048_2048_80.jpg,中国最美六大冰川之一，冰川与森林、湖泊共存。
45,鲁朗景区,B037E0M6EL,4A,风景名胜;风景名胜;风景名胜,318国道附近,94.7335,29.699104,0894-5889222,西藏自治区,林芝市,巴宜区,[],,http://store.is.autonavi.com/showpic/530ed7f5c7e638bb69e9269724339824;http://store.is.autonavi.com/showpic/3d27a1724c3c70b1f04c509dba0000fa;http://store.is.autonavi.com/showpic/bbd74c9ade70b62af090334bec3f8698,被誉为“东方瑞士”，林海雪原，风光旖旎，鲁朗石锅鸡闻名遐迩。
46,嘎朗湖景区,B0LURD45QY,4A,风景名胜;风景名胜;风景名胜,古乡嘎朗村,95.60487,29.903856,[],西藏自治区,林芝市,波密县,[],,https://aos-comment.amap.com/comment/content_service_e84cf17b3e20e70a6a401eaa5f65b5c9_1767295014391_30385557.jpg;https://aos-comment.amap.com/B0LURD45QY/comment/content_media_external_images_media_1000013370_ss__1767295008745_51235608.jpg;https://aos-comment.amap.com/B0LURD45QY/comment/content_media_external_images_media_1000014793_ss__1767294955845_07346681.jpg,湖光山色，风景如画，桃花盛开时尤为美丽。
47,措木及日风景区(暂停开放),B037E003L8,4A,风景名胜;风景名胜;风景名胜,措木及日路,94.393018,29.70819,[],西藏自治区,林芝市,巴宜区,[],,http://store.is.autonavi.com/showpic/d8484f718308d54257e626ea51888583;http://store.is.autonavi.com/showpic/5f021d3238a7e098be48c9646efe2c00;https://aos-comment.amap.com/B037E003L8/comment/276457b06defc3dd94818363506c56cc_2048_2048_80.jpg,冰湖美景，原始森林，生态环境优美。
48,果果塘大拐弯,B0FFH6LDHD,4A,风景名胜;风景名胜;风景名胜,德兴乡,95.281796,29.319533,[],西藏自治区,林芝市,墨脱县,[],,http://store.is.autonavi.com/showpic/3d82af661f355c2ce62c02b920079fa8;https://aos-comment.amap.com/B0FFH6LDHD/comment/276AEF14_ECEE_47A0_9318_DEE69F756DE9_L0_001_2000_150_1760483253556_03692027.jpg;https://aos-comment.amap.com/B0FFH6LDHD/comment/content_media_external_file_388494_ss__1752761881219_06361125.jpg,雅鲁藏布江在此形成巨大的马蹄形大拐弯，气势磅礴。
49,娘热民俗风情园(暂停开放),B037B022BC,3A,风景名胜;风景名胜;国家级景点,娘热乡娘热路风情园门口,91.107474,29.707308,0891-6800513;18908919981,西藏自治区,拉萨市,城关区,www.lhasafolkmuseum.com,,https://aos-comment.amap.com/B037B022BC/comment/content_media_external_file_33433_ss__1761809560424_30983746.jpg;http://aos-cdn-image.amap.com/sns/ugccomment/b155410c-7d35-46c6-a6ac-ddefaf015141.jpg;http://aos-cdn-image.amap.com/sns/ugccomment/f855ccec-a029-489b-915a-7628e9534c9b.jpg,展示藏族民俗文化，体验藏式生活。
50,城关区净土智昭产业园区,B0FFKXL39H,3A,风景名胜;风景名胜;省级景点,规划一路,91.258512,29.644517,[],西藏自治区,拉萨市,城关区,[],,http://store.is.autonavi.com/showpic/d7c8ef13e5f47f8b9c6e249cd2491881;https://store.is.autonavi.com/showpic/17048a8ba396e50b3f52ce792ab1ee88;http://store.is.autonavi.com/showpic/084fc51dcb553fdf0db855d758480146,现代农业产业园区，展示高原特色农业。
51,藏游坛城,B0FFF5QPPN,3A,风景名胜;风景名胜;风景名胜,罗堆西路16号,91.070118,29.647427,[],西藏自治区,拉萨市,城关区,[],,https://aos-comment.amap.com/B0FFF5QPPN/comment/175346801911_1753468021172_03425276.jpg;https://aos-comment.amap.com/B0FFF5QPPN/comment/36e58f48f130c0609b4e396aa86bbdef_2048_2048_80.jpg;http://store.is.autonavi.com/showpic/a8cc57efc9c091d0a9a764a7c66e6331,集文化、旅游、商业于一体的综合体。
52,夏扎大院,B0FFHG2WLI,3A,风景名胜;风景名胜相关;旅游景点,八廓南街鲁固一巷13号,91.133681,29.648377,[],西藏自治区,拉萨市,城关区,[],,https://aos-comment.amap.com/B0FFHG2WLI/comment/content_media_external_file_1000019457_ss__1759986597655_31449622.jpg;http://aos-cdn-image.amap.com/sns/ugccomment/970c2748-0e62-41d2-9e8f-3c2ab8787a59.jpg,拉萨保存较好的古建筑大院，具有较高的历史价值。
53,达孜工业园,B0FFFRS1K4,3A,商务住宅;产业园区;产业园区,虎峰大道与南山嘴路交叉口西280米,91.332707,29.667385,[],西藏自治区,拉萨市,达孜区,[],,,达孜区的工业发展区域。
54,藏草宜生,B0FFGG7QBI,3A,公司企业;公司;公司,东嘎镇经济技术开发区格桑路A1-11,91.017129,29.635959,13123900416,西藏自治区,拉萨市,堆龙德庆区,[],,http://store.is.autonavi.com/showpic/76a7df6fa0025d23135f833b56f0fb32,专注于西藏特色植物资源的开发利用。
55,中国西藏文化旅游创意园区,B0FFG6Q4X3,3A,商务住宅;产业园区;产业园区,鲁如村,91.141571,29.615196,[],西藏自治区,拉萨市,城关区,[],,,集文化创意、旅游休闲、演艺娱乐为一体的园区。
56,西藏毛主席像章博物馆,B0KBGUAI8P,3A,科教文化服务;博物馆;博物馆,北京大道21号,91.082385,29.616746,[],西藏自治区,拉萨市,堆龙德庆区,[],,https://store.is.autonavi.com/showpic/b9e3fb6a193c36739b58ebb7ec1d20b8;https://store.is.autonavi.com/showpic/e7afea6736bddc2c6e883b9b22f843d3;https://aos-comment.amap.com/B0KBGUAI8P/comment/content_media_external_images_media_1000086447_ss__1728794921404_49691122.jpg,收藏了大量毛主席像章，具有红色教育意义。
57,林周农场,B0FFKJ7NV7,3A,公司企业;公司企业;公司企业,强嘎乡中心小学北侧约60米,91.135889,29.943639,[],西藏自治区,拉萨市,林周县,[],,http://aos-cdn-image.amap.com/sns/ugccomment/6a958b35-0749-4643-88e9-d862366b0700.jpg;https://aos-comment.amap.com/B0FFKJ7NV7/comment/content_media_external_file_61815_ss__1766227051983_16843386.jpg;http://aos-cdn-image.amap.com/sns/ugccomment/2b9c7bc6-8f66-4538-9809-b72fedcde240.jpg,知青岁月的记忆，红色旅游景点。
58,南山公园,B0FFI7J66Z,3A,风景名胜;风景名胜相关;旅游景点,川藏公路,91.118424,29.63312,[],西藏自治区,拉萨市,城关区,[],,https://aos-comment.amap.com/B0FFI7J66Z/comment/content_media_external_file_118446_ss__1752393973085_37648509.jpg;https://aos-comment.amap.com/B0FFI7J66Z/comment/4BD3A94B_5988_4F98_A42C_431CE731C3FE_L0_001_1126_200_1753352581418_56474992.jpg;https://aos-comment.amap.com/B0FFI7J66Z/comment/3F840A0B_FCD1_4515_8C04_BC3214D6B4EC_L0_001_1500_200_1750897247736_46196425.jpg,拉萨市民休闲的好去处，登高可俯瞰拉萨全景和布达拉宫。
59,日喀则珠峰现代农业科技创新博览园(装修中),B0FFLFENOJ,3A,科教文化服务;科教文化场所;科教文化场所,洛江镇觉如村日喀则珠峰现代农业,89.251934,29.127851,18228673000,西藏自治区,日喀则市,白朗县,[],,,展示现代农业科技成果。
60,纳唐寺,B037C0094S,3A,风景名胜;风景名胜;寺庙道观,纳唐村距日喀则15公里,88.763996,29.191393,[],西藏自治区,日喀则市,桑珠孜区,[],,http://store.is.autonavi.com/showpic/e61530bb958670de7880bcb9bbdc5501;http://store.is.autonavi.com/showpic/40cb40e554e4ba62b7620c76bf940295;http://store.is.autonavi.com/showpic/7cfc3ac5be1e5641c72287b4a6f6d192,藏传佛教古寺，曾是印经重镇。
61,恩贡寺,B0FFGS7B91,3A,风景名胜;风景名胜;寺庙道观,江当乡拉圭村,89.183191,29.30296,[],西藏自治区,日喀则市,桑珠孜区,[],,https://aos-comment.amap.com/B0FFGS7B91/comment/A50EC69E_7932_4251_8E86_4B562FF67F99_L0_001_4032_302_1754800546445_14219338.jpg;https://aos-comment.amap.com/B0FFGS7B91/comment/730B3122_4D2C_4F46_95C7_C7BF0CD2E8D4_L0_001_4032_302_1754800546445_52647524.jpg;https://aos-comment.amap.com/B0FFGS7B91/comment/%5B2025-08-10-12-35-44%5D22340611-E1C3-4EA3-B478-E37FE53388A_1754800546430_02764446.jpg,历史悠久的寺庙，具有独特的宗教文化。
62,俄尔寺,B037C0OU77,3A,风景名胜;风景名胜;寺庙道观,曲美乡边容村,88.827687,29.115914,[],西藏自治区,日喀则市,桑珠孜区,[],,http://store.is.autonavi.com/showpic/8f028356f06ec4201fefed387afd10e4;https://aos-comment.amap.com/B037C0OU77/comment/B57386D6_959D_466E_8133_CCAE05BC9F95_L0_001_1658_200_1748240235968_84004188.jpg;https://aos-comment.amap.com/B037C0OU77/comment/6E28C5C3_69B1_48B9_A11A_4FE2695D7EFB_L0_001_1642_200_1748240235968_20276393.jpg,萨迦派寺院，建筑宏伟。
63,夏鲁寺,B037C002XF,3A,风景名胜;风景名胜;寺庙道观,桑珠孜区夏鲁村东南20公里处的春堆区,88.994665,29.124158,[],西藏自治区,日喀则市,桑珠孜区,[],,https://aos-comment.amap.com/B037C002XF/comment/content_media_external_file_1000019986_ss__1755474682655_12957976.jpg;https://aos-comment.amap.com/B037C002XF/comment/content_media_external_file_1000014267_ss__1767173256871_77726308.jpg;http://store.is.autonavi.com/showpic/c223267dd6d97f8cc72bfe0f6025402a,汉藏建筑风格结合的典范，壁画艺术价值极高。
64,扎西吉培寺转经道,B0GUCH8SCZ,3A,风景名胜;风景名胜;寺庙道观,通门乡坚白村扎西吉培寺后山,88.202558,29.432452,[],西藏自治区,日喀则市,谢通门县,[],,,信徒转经的道路，充满宗教氛围。
65,卡嘎温泉旅游小镇,B0GUCS3IVJ,3A,风景名胜;风景名胜相关;旅游景点,卡嘎镇卡嘎村,88.238206,29.443338,[],西藏自治区,日喀则市,谢通门县,[],,https://aos-comment.amap.com/B0GUCS3IVJ/comment/68E90A97_0CFF_41AE_BD09_AABBC8F6C2D3_L0_001_2000_112_1758074219676_17095009.jpg;https://aos-comment.amap.com/B0GUCS3IVJ/comment/2B825002_6407_4A59_A3A8_805C15FC2B0C_L0_001_2016_113_1758074219690_35139398.jpg,著名的温泉疗养胜地。
66,曲果林寺,B037D0071G,3A,风景名胜;风景名胜;寺庙道观,,90.893177,29.233311,[],西藏自治区,山南市,贡嘎县,[],,http://store.is.autonavi.com/showpic/50cca6e91680b62a584eff879aaa3096;http://store.is.autonavi.com/showpic/cade548950cf0374eba3dc8cc1c1d60a,古老的寺庙，环境清幽。
67,热拉雍仲林寺,B037C0051K,3A,风景名胜;风景名胜;寺庙道观,奴马乡热拉村,89.649363,29.356216,0892-8822216,西藏自治区,日喀则市,南木林县,[],,http://aos-cdn-image.amap.com/sns/ugccomment/20fe7dbf-906c-4ce5-9af2-08c6ff3a8be4.jpg;http://aos-cdn-image.amap.com/sns/ugccomment/2a66a2e7-ccbb-4dd5-ae99-b34025d20559.jpg;http://aos-cdn-image.amap.com/sns/ugccomment/0eb85457-9d36-4678-a47e-12bcd60ffcd0.jpg,苯教重要寺庙。
68,拉孜曲德寺,B037C009HP,3A,风景名胜;风景名胜;寺庙道观,曲德寺(拉柳公路西),87.689741,29.15645,[],西藏自治区,日喀则市,拉孜县,[],,http://store.is.autonavi.com/showpic/c1733c9077b0c4aa7ea5caaaff642354;http://store.is.autonavi.com/showpic/005f23eb8a72e0fb4d7664e4e226292b;http://store.is.autonavi.com/showpic/a601ca204be1fe2f28d2d9f33a13d0d9,位于拉孜县的寺庙。
69,平措林寺,B0GUCA4JKE,3A,风景名胜;风景名胜;寺庙道观,彭措林乡平措林寺(彭措林寺旁),88.004481,29.36478,[],西藏自治区,日喀则市,拉孜县,[],,https://aos-comment.amap.com/B0GUCA4JKE/comment/content_media_external_file_1000019451_ss__1753923416791_21335914.jpg;https://aos-comment.amap.com/B0GUCA4JKE/comment/content_media_external_file_1000019448_ss__1753923416792_93284127.jpg;https://aos-comment.amap.com/B0GUCA4JKE/comment/content_media_external_file_1000019449_ss__1753923416791_57806605.jpg,觉囊派寺院，建筑保存完好。
70,曲德寺,B037C0PF2D,3A,风景名胜;风景名胜;寺庙道观,多雄路17号,87.238667,29.292588,[],西藏自治区,日喀则市,昂仁县,[],,http://aos-cdn-image.amap.com/sns/ugccomment/8f0d2923-a87d-4618-9a65-3245b569dd5d.jpg,具有历史意义的寺庙。
71,日吾其金塔,B0GUUUZK9K,3A,风景名胜;风景名胜相关;旅游景点,日吾其村,86.617754,29.189057,[],西藏自治区,日喀则市,昂仁县,[],,http://store.is.autonavi.com/showpic/96c69f9f08b83b65ef3f7afaa8ef250b,造型独特的佛塔，具有较高的艺术价值。
72,帕巴寺,B0FFKZF9TE,3A,风景名胜;风景名胜;寺庙道观,吉隆镇,85.330024,28.393011,[],西藏自治区,日喀则市,吉隆县,[],,http://store.is.autonavi.com/showpic/c56ad08de32640c8b22a338908863e1d;https://store.is.autonavi.com/showpic/db037d8fb6ad8350e04db3586fa05312;https://store.is.autonavi.com/showpic/39a88a532fbc6f21d5a28d83007e6d97,吉隆县的古寺，尼泊尔风格建筑。
73,吉布峡谷,B037C00ACU,3A,风景名胜;风景名胜相关;旅游景点,吉隆镇南部约2公里处,85.332289,28.377449,[],西藏自治区,日喀则市,吉隆县,[],,http://store.is.autonavi.com/showpic/e26ffc1e42cf381855708ef2debbcb4d;http://aos-cdn-image.amap.com/sns/ugccomment/727ab096-6d4c-4f17-a793-625047222595.jpg;https://aos-comment.amap.com/B037C00ACU/comment/content_media_external_file_1000013129_ss__1764400415542_40393443.jpg,峡谷幽深，景色险峻。
74,帕拉庄园,B037C00AOT,3A,风景名胜;风景名胜;国家级景点,江热乡班觉伦布村,89.575504,28.899952,[],西藏自治区,日喀则市,江孜县,[],,https://aos-comment.amap.com/B037C00AOT/comment/content_media_external_file_1000019951_ss__1755388902326_57806974.jpg;http://store.is.autonavi.com/showpic/3ff0b99ac736ff20536f115a8ae82904;http://store.is.autonavi.com/showpic/a6485b901444224deaee56f187a20af8,西藏目前保存最完整的奴隶主庄园。
75,嘎布嘎久生态民俗村,B0GUFCEJ7C,3A,地名地址信息;地名地址信息;地名地址信息,仁布县,89.88405,29.314976,[],西藏自治区,日喀则市,仁布县,[],,,体验民俗风情和乡村生活。
76,强钦寺,B037C0OWRH,3A,风景名胜;风景名胜;寺庙道观,仁布乡清真饭馆,89.841411,29.232785,[],西藏自治区,日喀则市,仁布县,[],,https://aos-comment.amap.com/B037C0OWRH/comment/content_media_external_file_1000019492_ss__1754009369656_29852587.jpg;https://aos-comment.amap.com/B037C0OWRH/comment/content_media_external_file_1000019490_ss__1754009369656_69596174.jpg;https://aos-comment.amap.com/B037C0OWRH/comment/content_media_external_file_1000019493_ss__1754009369655_50901914.jpg,苯教寺庙，历史悠久。
77,多情湖,B0LUSU5T7C,3A,风景名胜;风景名胜;风景名胜,562国道东南侧,89.340294,28.168858,[],西藏自治区,日喀则市,亚东县,[],,https://aos-comment.amap.com/B0LUSU5T7C/comment/content_media_external_images_media_1000010575_ss__1751366881820_55637334.jpg;https://aos-comment.amap.com/B0LUSU5T7C/comment/content_media_external_images_media_1000010591_ss__1751366881819_40008727.jpg;https://aos-comment.amap.com/B0LUSU5T7C/comment/content_media_external_images_media_1000010592_ss__1751366881818_49214654.jpg,湖水清澈，背靠雪山，景色浪漫。
78,野人谷,B0G2NC5KXX,3A,风景名胜;风景名胜相关;旅游景点,下亚东乡阿桑村,88.996993,27.341579,[],西藏自治区,日喀则市,亚东县,[],,http://store.is.autonavi.com/showpic/b24af95a00b5b5af89ac4d289e42611d;http://store.is.autonavi.com/showpic/34068acaa6a62703448446097cfefd97;http://store.is.autonavi.com/showpic/1ae7143159bb0c76bd11dba1f06294c9,充满神秘色彩的峡谷。
79,乃堆拉杜鹃花海景区,B0GU9CTVHL,3A,风景名胜;风景名胜相关;旅游景点,下亚东乡,88.834021,27.394192,[],西藏自治区,日喀则市,亚东县,[],,http://store.is.autonavi.com/showpic/106be384f23d402f86610396fa623b72;http://store.is.autonavi.com/showpic/1958ca25444e20a01af8e3f4bd6e903f;https://aos-comment.amap.com/B0GU9CTVHL/comment/file_media_Photo_5278_IMG_1748510185_4680_IMG_20250529_171445_jpg_ss_2.jpg,杜鹃花盛开时，漫山遍野，美不胜收。
80,拉萨东嘎农副产品批发市场,B037B023WN,3A,购物服务;综合市场;农副产品市场,青藏路南50米,90.985075,29.651925,13258395383,西藏自治区,拉萨市,堆龙德庆区,[],,https://aos-comment.amap.com/B037B023WN/comment/c5120664d0e38ed60e2ac4c995b6d7a4_2048_2048_80.jpg;https://aos-comment.amap.com/B037B023WN/comment/b8f4b9952b44cc2fcb12fb84106b0c71_2048_2048_80.jpg;https://comment-oss-online.oss-cn-wulanchabu.aliyuncs.com/B037B023WN/comment/content_media_external_images_media_69664.jpg,拉萨重要的农副产品集散地。
81,曲桑寺,B0FFGTC5F3,3A,风景名胜;风景名胜;风景名胜,娘热乡,91.124056,29.709883,[],西藏自治区,拉萨市,城关区,[],,http://store.is.autonavi.com/showpic/5a0aa7c4f3f3743fe53ecbd0c134ad6f;http://store.is.autonavi.com/showpic/d1ca0926a916f5ff8e98abe85c5a5a2f;http://store.is.autonavi.com/showpic/0592ea0c691573ed85d968a959134462,著名的尼姑寺，环境幽雅。
82,云天湖公园,B0LK57VB7E,3A,风景名胜;公园广场;公园,达瓦路e区,91.139862,29.622912,[],西藏自治区,拉萨市,城关区,[],,https://store.is.autonavi.com/showpic/1964fae716aa6738de3d5fc060eb114c;https://store.is.autonavi.com/showpic/ddacc4bd7e4333246a34a83b09e12ca6,高山湖泊公园，景色宜人。
83,阿布入寺,B0FFKJTHUF,3A,风景名胜;风景名胜;寺庙道观,江嘎西路西150米,87.761327,28.36312,[],西藏自治区,日喀则市,定结县,[],,https://aos-comment.amap.com/B0FFKJTHUF/headerImg/01304471328eb403e7ebfc8b51c460a5_2048_2048_80.jpg;http://aos-cdn-image.amap.com/sns/ugccomment/ad944baa-ae7c-4721-b15b-ebb803272b40.jpg;https://aos-comment.amap.com/B0FFKJTHUF/headerImg/f0afdb9e6bb7620048771d510f609f46_2048_2048_80.jpg,山南地区的古老寺庙。
84,羌姆石窟,B0FFKKF40E,3A,风景名胜;风景名胜相关;旅游景点,西藏自治区日喀则市定结县,87.966983,28.131972,[],西藏自治区,日喀则市,定结县,[],,http://store.is.autonavi.com/showpic/de7560869d79a32f53581570cf4cef44;http://store.is.autonavi.com/showpic/d642ac030deb852642daa17f8454291d;http://store.is.autonavi.com/showpic/2569950259f2a543b4e42416dd06ea0f,珍贵的石窟艺术遗存。
85,美女湖,B0G1FCPBXT,3A,风景名胜;风景名胜;风景名胜,,87.538475,27.909162,[],西藏自治区,日喀则市,定结县,[],,,湖水碧蓝，传说动人。
86,江孜县红河谷现代农业科技示范园,B0G0SC07JA,3A,商务住宅;产业园区;产业园区,江孜镇东郊村,89.628299,28.896639,17808929966,西藏自治区,日喀则市,江孜县,[],,,展示高原现代农业技术。
87,曲登尼玛寺,B0FFM3V2VU,3A,风景名胜;风景名胜;寺庙道观,嘎定线,88.246483,28.054008,[],西藏自治区,日喀则市,岗巴县,[],,http://store.is.autonavi.com/showpic/c5c18b66fd01a59fdc25f3a5d217a193;https://aos-comment.amap.com/B0FFM3V2VU/comment/%5B2025-08-22-09-32-13%5DCEC64A69-801B-4141-876D-C912D7CE032_1755826335154_21483059.jpg;https://aos-comment.amap.com/B0FFM3V2VU/comment/75455EB7_95EB_4A3A_82AC_9128FDFADE6A_L0_001_2000_150_1755826283167_83088003.jpg,著名的神湖和寺庙，信徒众多。
88,敏珠林寺藏香,B037B0OK6E,3A,风景名胜;风景名胜;寺庙道观,八廓北街12号,91.134151,29.650883,[],西藏自治区,拉萨市,城关区,[],,https://aos-comment.amap.com/B037B0OK6E/comment/2117BA8F_8FB4_45E8_A2F2_123CC482227B_L0_001_1500_200_1757818264610_61847645.jpg;https://aos-comment.amap.com/B037B0OK6E/comment/content_media_external_file_1000026891_ss__1767283135411_04202365.jpg;https://aos-comment.amap.com/comment/content_service_19c7537c36df90b430e63a25bda833e3_1767283138407_12155039.jpg,敏珠林寺制作的藏香，闻名遐迩。
89,拉加里王宫,B037D0MKS8,3A,风景名胜;风景名胜相关;旅游景点,曲松镇康桑路与甘旦路交叉口西南200米,92.19582,29.062931,[],西藏自治区,山南市,曲松县,[],,https://aos-comment.amap.com/B037D0MKS8/comment/content_media_external_file_1000061044_ss__1764002999587_28149356.jpg;https://aos-comment.amap.com/B037D0MKS8/comment/content_media_external_file_1000061066_ss__1764002999597_98382335.jpg;https://aos-comment.amap.com/B037D0MKS8/comment/content_media_external_file_1000061061_ss__1764002999594_33451062.jpg,西藏历史上贵族王宫遗址。
90,藏王陵群,B037D004CV,3A,风景名胜;风景名胜;风景名胜,青瓦达孜路,91.684642,29.013376,[],西藏自治区,山南市,琼结县,[],,http://store.is.autonavi.com/showpic/cc73dece5b8fa81ac0e8d2c906bafd11;https://aos-comment.amap.com/B037D004CV/comment/1AC04760_63A6_455A_9E1D_3CDD449078D6_L0_001_1364_2048_1759082445578_31300126.jpg;https://aos-comment.amap.com/B037D004CV/comment/content_media_external_images_media_143416_ss__1730880776091_77266435.jpg,吐蕃时期历代赞普的陵墓群，气势宏大。
91,普姆雍措,B0L61S6941,3A,风景名胜;风景名胜;风景名胜,打隆镇普莫雍错,90.451435,28.619657,[],西藏自治区,山南市,浪卡子县,[],,http://store.is.autonavi.com/showpic/c9b54cc4f582361cf7689bd9e097c540;https://aos-comment.amap.com/B037D0MKP2/comment/335cea29dbb0607f7a3f977202e60914_2048_2048_80.jpg;https://aos-comment.amap.com/B037D0MKP2/comment/e04860957790f8619c08f493c08f107a_2048_2048_80.jpg,被称为“飞翔的蓝宝石”，湖水湛蓝。
92,达拉岗布寺,B0HU9C8V5G,3A,风景名胜;风景名胜;寺庙道观,306省道,92.809207,29.119776,[],西藏自治区,山南市,加查县,[],,http://store.is.autonavi.com/showpic/29297c608acb72bcf940941cd3707ed8;http://store.is.autonavi.com/showpic/35e622239d09d993d07ecb8a33576f4b;http://aos-cdn-image.amap.com/sns/ugccomment/5095ac78-52fb-45cb-8eab-55e41040e2d9.png,达波噶举派的祖寺。
93,沃卡温泉酒店,B0G0PABQ4G,3A,住宿服务;宾馆酒店;宾馆酒店,贡桑线与沃巴线交叉口西北360米,92.316095,29.379019,[],西藏自治区,山南市,桑日县,[],,http://aos-cdn-image.amap.com/sns/ugccomment/3fd2bd81-ba86-4bc8-8dc7-16267aed73ae.jpg;http://aos-cdn-image.amap.com/sns/ugccomment/fa39856f-e3c5-4d91-abfd-e25ed1f84ca0.jpeg;https://aos-comment.amap.com/B0G0PABQ4G/comment/E8198814_89B9_420B_8600_9FDD19027B8B_L0_001_1170_87_1765803565485_46248463.jpg,享受温泉浴的好去处。
94,勒布沟,B0FFJMA9XZ,3A,地名地址信息;地名地址信息;地名地址信息,错那市,91.799446,27.869054,[],西藏自治区,山南市,错那市,[],,http://store.is.autonavi.com/showpic/e9801a00539069ad5fdcb63790bcbb14;http://store.is.autonavi.com/showpic/40c73c4229d22fe98f254fba2ab2215d;http://store.is.autonavi.com/showpic/37f4bff8eee06ead412ade359d4ce7ae,气候湿润，植被茂密，天然氧吧。
95,拉姆拉措客栈(拉萨仙足岛店),B0FFFAMUYY,3A,住宿服务;住宿服务相关;住宿服务相关,仙足岛南一区19号,91.133821,29.638279,18008991805,西藏自治区,拉萨市,城关区,[],,https://store.is.autonavi.com/showpic/7455d31692b1f5d17249408cd830ae9b;https://store.is.autonavi.com/showpic/ac603b0087d8faa1823ac00990373b4f;https://store.is.autonavi.com/showpic/cb56dabb0bda9aef438ed54872846b73,特色客栈，提供舒适住宿。
96,夯错湿地暗夜星空景区,B0J1Y5KJDB,3A,风景名胜;风景名胜;风景名胜,罗玛镇显曲弄,91.790998,31.285136,19809860111,西藏自治区,那曲市,色尼区,[],,http://store.is.autonavi.com/showpic/a0cd8a5ae6da10513a83a97effe08edf;http://store.is.autonavi.com/showpic/f75898bb35a1a60c41b40d307a2dada5;http://store.is.autonavi.com/showpic/acec51ef5cbc398bc7505276b1a87aef,观赏星空的绝佳地点。
97,纳木措国家风景区,B0FFFS3L3J,3A,风景名胜;风景名胜;风景名胜,当扎路,91.129505,30.544918,[],西藏自治区,拉萨市,当雄县,[],,http://store.is.autonavi.com/showpic/75d2306cb0ade904bad4ce0afb1d34c4;http://store.is.autonavi.com/showpic/7ade357c3c8219b54216774122548b23;http://store.is.autonavi.com/showpic/dabdaa4a1daa63aa21933e8a1158055c,西藏“三大圣湖”之一，海拔最高的咸水湖，景色绝美。
98,嘉黎独俊大峡谷,B0K11S5QLV,3A,风景名胜;风景名胜;风景名胜,,93.587961,30.590534,[],西藏自治区,那曲市,嘉黎县,[],,http://store.is.autonavi.com/showpic/807ff2e31cd753a79b641246cbfa42e7;http://store.is.autonavi.com/showpic/74e1b4b30bf0bc90c6b4866a3cdd97f0;http://store.is.autonavi.com/showpic/73f0e933ffd09f8956654af0fc0f74c7,风景秀丽的峡谷。
99,天下第一道班,B0G3A7I22K,3A,公司企业;公司;公司,G109(京拉线),91.904425,32.800585,[],西藏自治区,那曲市,安多县,[],,http://store.is.autonavi.com/showpic/03bdabc33f38571e396ac4b4f4c4c46d,青藏公路上的守护者，弘扬道班精神。
100,聂荣县,B038000TVA,3A,地名地址信息;普通地名;区县级地名,聂荣县,92.303377,32.10775,[],西藏自治区,那曲市,聂荣县,[],,https://aos-comment.amap.com/B038000TVA/comment/content_media_external_images_media_100003140_1744635673872_00239004.jpg;https://aos-comment.amap.com/B038000TVA/comment/content_media_external_images_media_100003140_1744635605838_23418622.jpg;https://aos-comment.amap.com/B038000TVA/comment/content_media_external_images_media_100003140_1744635605835_98606939.jpg,那曲市下辖县，牧业为主。
101,那曲乡村快运,B0L2TZ2YHQ,3A,生活服务;物流速递;物流速递,文化西路南一条街,92.041487,31.46906,17889173966,西藏自治区,那曲市,色尼区,[],,https://store.is.autonavi.com/showpic/9ea9c7eed2cb2856f3d9eed4d09ca305,服务乡村的物流站点。
102,强巴林寺,B0LU1UFYH5,3A,生活服务;生活服务场所;生活服务场所,热日路,91.796692,30.030187,[],西藏自治区,拉萨市,墨竹工卡县,[],,http://store.is.autonavi.com/showpic/08b12684bece9ba4200d09308b393b73;http://store.is.autonavi.com/showpic/0d5291a27fef0ac8fa6729dd2c683703;http://store.is.autonavi.com/showpic/30181251f336e2cd7445a198c8306c0c,昌都地区最大的格鲁派寺院。
103,色拉寺,B037B00980,3A,风景名胜;风景名胜;寺庙道观,色拉路1号,91.134823,29.695223,[],西藏自治区,拉萨市,城关区,[],,https://aos-comment.amap.com/B037B00980/comment/4AB61F10_CBB0_4EB5_8898_6254F1486C6E_L0_001_1920_108_1763001175221_61497347.jpg;https://aos-comment.amap.com/B037B00980/comment/file_media_Photo_3498_IMG_1759300897_599_IMG_20251001_143957_jpg_ss_2.jpg;https://aos-comment.amap.com/B037B00980/comment/18A6C274_A8F4_49CE_AF67_3A2135CB44CE_L0_001_1512_201_1751621182631_34446899.jpg,拉萨三大寺之一，以辩经闻名。
104,西藏嘎玛物流,B0FFJZV4F0,3A,生活服务;生活服务场所;生活服务场所,当热路,91.176981,29.662968,[],西藏自治区,拉萨市,城关区,[],,http://store.is.autonavi.com/showpic/dfe3d56ef3bb433a03c70123a05f9ced,物流服务企业。
105,谷布山景区,B0JU2S9OKE,3A,风景名胜;风景名胜;风景名胜,,97.104663,31.448233,[],西藏自治区,昌都市,卡若区,[],,http://store.is.autonavi.com/showpic/3c60658c72a46e6d04864f665410cf52;http://store.is.autonavi.com/showpic/cf4a1310bd7909c6e6a30a931ee81efb;http://store.is.autonavi.com/showpic/f6b6a82845d123b77d273b9e8b0a15ee,朝圣圣地，山上有修行洞。
106,布托湖,B0FFG3MOXG,3A,风景名胜;风景名胜相关;旅游景点,丁青北约25公里处,95.563498,31.630698,[],西藏自治区,昌都市,丁青县,[],,https://aos-comment.amap.com/B0FFG3MOXG/comment/89d10348b353bab8b0756803932741a8_2048_2048_80.jpg;https://aos-comment.amap.com/B0FFG3MOXG/comment/8fd2f43a3fa18006a9a07b32f1856471_2048_2048_80.jpg;http://store.is.autonavi.com/showpic/b6df16f6b7c7de522394b087af48c6dc,两个湖泊组成，生态环境良好。
107,然乌湖景区,B037F003S9,3A,风景名胜;风景名胜;风景名胜,然乌镇查卡,96.797833,29.443242,[],西藏自治区,昌都市,八宿县,[],,https://store.is.autonavi.com/showpic/26f5d5500df3d535b0d4a4d0a84f2889;https://store.is.autonavi.com/showpic/4defca74370e6078a48a6dbcc48656bb;https://aos-comment.amap.com/B037F003S9/comment/content_media_external_file_118350_ss__1759669672994_84714791.jpg,川藏线上的明珠，湖水静谧。
108,西藏旅游花园,B0FFI11JT6,3A,商务住宅;住宅区;住宅小区,北京大道,91.079249,29.61961,[],西藏自治区,拉萨市,堆龙德庆区,[],,https://aos-comment.amap.com/default_poi/comment/content_media_external_images_media_1000004320_ss__1731633644202_13890542.jpg;https://aos-comment.amap.com/default_poi/comment/content_media_external_images_media_1000004317_ss__1731633644203_94277229.jpg,旅游休闲场所。
109,拉萨直升机观光旅游区,B0JUT1QEYF,3A,风景名胜;风景名胜相关;旅游景点,慈觉林大道与102乡道交叉口北40米,91.146911,29.633621,[],西藏自治区,拉萨市,城关区,[],,,提供直升机空中游览拉萨服务。
110,雪顿古镇,B0FFMBBMGI,3A,商务住宅;住宅区;住宅区,次觉林Y102乡道西段,91.135033,29.62047,[],西藏自治区,拉萨市,城关区,[],,http://store.is.autonavi.com/showpic/d82088958ec9a47dbb2c7f7a22ec81cb;http://store.is.autonavi.com/showpic/cfb118c7df921f8c232eda18b1e23781;https://aos-comment.amap.com/B0FFMBBMGI/comment/content_media_external_file_1000043954_ss__1751015426067_66939445.jpg,具有藏式风情的古镇。
111,吉曲温泉小镇营销中心,B0IASCLQLZ,3A,生活服务;生活服务场所;生活服务场所,吉曲温泉小镇,91.129761,29.610528,[],西藏自治区,拉萨市,城关区,[],,https://store.is.autonavi.com/showpic/346e113f30877ffa8037f12400cade7d;https://comment-oss-online.oss-cn-wulanchabu.aliyuncs.com/B0IASCLQLZ/comment/content_media_external_images_media_79711.jpg;https://comment-oss-online.oss-cn-wulanchabu.aliyuncs.com/B0IASCLQLZ/comment/content_media_external_images_media_100229_1650527060915_352f1488.jpg,温泉地产项目。
112,夏乌民俗村,B0L327463U,3A,风景名胜;风景名胜;风景名胜,317国道,98.365864,31.5778,[],西藏自治区,昌都市,江达县,[],,,以制作陶器闻名的民俗村。
113,雪巴沟风景区,B0G35UV21X,3A,风景名胜;风景名胜相关;旅游景点,岗托镇,98.58146,31.519396,[],西藏自治区,昌都市,江达县,[],,http://store.is.autonavi.com/showpic/d594974a81a19a546d8f88aafe43ac52;https://aos-comment.amap.com/B0G35UV21X/comment/2faf0733bc46245470e6132179248121_2048_2048_80.jpg;http://store.is.autonavi.com/showpic/93332560785f77abd742a952478774a7,自然风光优美。
114,大峡谷山珍宝天海路店,B0FFHC27G7,3A,餐饮服务;中餐厅;中餐厅,天海路天海商业区63号,91.101225,29.659831,0891-6502233;0891-6502255,西藏自治区,拉萨市,城关区,[],,https://aos-comment.amap.com/B0FFHC27G7/comment/content_media_external_file_1000042646_ss__1762683671202_50036054.jpg;https://aos-comment.amap.com/B0FFHC27G7/comment/content_media_external_file_100003781_1761486286706_69991468.jpg;https://aos-comment.amap.com/B0FFHC27G7/comment/10A2FA3E_C71D_41D2_BA8A_A00F0FB92BEB_L0_001_1915_84_1762763595591_60114238.jpg,特产商店。
115,查杰玛大殿景区,B037F0058G,3A,风景名胜;风景名胜相关;旅游景点,类乌齐镇,96.503383,31.368894,[],西藏自治区,昌都市,类乌齐县,[],,https://aos-comment.amap.com/B037F0058G/comment/b170dc2f9bc911c6f85155e927a1c287_2048_2048_80.jpg;https://store.is.autonavi.com/showpic/ba8ec6be1ef5fb0607ed0b705092dfa4;https://aos-comment.amap.com/B037F0058G/comment/content_media_external_file_42406_ss__1759415158981_91599376.jpg,类乌齐寺的大殿，建筑风格独特。
116,雪顿古镇,B0FFMBBMGI,3A,商务住宅;住宅区;住宅区,次觉林Y102乡道西段,91.135033,29.62047,[],西藏自治区,拉萨市,城关区,[],,http://store.is.autonavi.com/showpic/d82088958ec9a47dbb2c7f7a22ec81cb;http://store.is.autonavi.com/showpic/cfb118c7df921f8c232eda18b1e23781;https://aos-comment.amap.com/B0FFMBBMGI/comment/content_media_external_file_1000043954_ss__1751015426067_66939445.jpg,具有藏式风情的古镇。
117,卓玛百货,B0FFH3Y7IY,3A,购物服务;购物相关场所;购物相关场所,北京中路则当饭店右侧,91.093625,29.657475,18289195933,西藏自治区,拉萨市,城关区,[],,http://store.is.autonavi.com/showpic/ae59fad2e48cc2d8db9dd338e8326a52,百货商店。
118,江野民居,B0L6ASMD55,3A,住宿服务;旅馆招待所;旅馆招待所,阿达次珠家庭旅馆北侧60米,94.030486,30.042291,[],西藏自治区,林芝市,工布江达县,[],,http://store.is.autonavi.com/showpic/490e139643ff22b0777d2dec9bbc19c1,特色民居。
119,美玉草原风景区,B037F0N5KZ,3A,风景名胜;风景名胜相关;旅游景点,加帮线与565乡道交叉口东南150米,97.41719,30.166111,[],西藏自治区,昌都市,左贡县,[],,,开阔的草原，牛羊成群。
120,直贡梯寺,B037B02SLX,3A,风景名胜;风景名胜;寺庙道观,以北仁多岗乡雪绒河边,92.205588,30.103744,[],西藏自治区,拉萨市,墨竹工卡县,[],,https://aos-comment.amap.com/B037B02SLX/comment/24DC3560_E1A7_4C12_8402_912DB99A598B_L0_001_2000_150_1755409600149_61702269.jpg;http://store.is.autonavi.com/showpic/cb8ecb46ee78bdf017d57462cecccd17;http://store.is.autonavi.com/showpic/538f6ff53d2b75e3ee06ae1dce6c9ebc,直贡噶举派祖寺，有著名的天葬台。
121,科迦寺,B03810M3MH,3A,风景名胜;风景名胜;寺庙道观,科加乡科加村,81.270307,30.192548,13889078392,西藏自治区,阿里地区,普兰县,[],,http://store.is.autonavi.com/showpic/1fbd1b0779e265b8a0c88dfd059d0348;https://store.is.autonavi.com/showpic/c25eb704dc8216ec5c74b6ccd92ad859;http://store.is.autonavi.com/showpic/e1b7e76934642ec62fb2b64f39798272,普兰县的古寺，著名的“科迦三杰”。
122,托林寺,B0381003E8,3A,风景名胜;风景名胜;寺庙道观,托林镇西北象泉河畔,79.799802,31.480773,[],西藏自治区,阿里地区,札达县,[],,http://store.is.autonavi.com/showpic/f0436c5b6a11458db0effc5313298854;https://aos-comment.amap.com/B0381003E8/comment/content_media_external_file_1000019160_ss__1752625869586_15772682.jpg;https://aos-comment.amap.com/B0381003E8/comment/content_media_external_images_media_78041_ss__1767162755159_65260495.jpg,古格王国在阿里地区建造的第一座佛寺。
123,东嘎洞窟遗址,B0FFGT9JZU,3A,风景名胜;风景名胜相关;旅游景点,东嘎村,79.833513,31.669933,[],西藏自治区,阿里地区,札达县,[],,https://aos-comment.amap.com/B0FFGT9JZU/comment/e78bd63e20c14eb18f1c5dd2fc0fad72_2048_2048_80.jpg;http://store.is.autonavi.com/showpic/a5138d77bba8fc00a24030e826295b24;http://store.is.autonavi.com/showpic/e150895985fc24c394eacbc069bcbeba,壁画精美，历史久远。
124,穹窿银城,B0FFJVUNS8,3A,风景名胜;风景名胜;省级景点,曲龙村西南附近,80.540358,31.061935,[],西藏自治区,阿里地区,札达县,[],,http://store.is.autonavi.com/showpic/c171fcc0b89a694ec69f6a66e1bf1f81;http://store.is.autonavi.com/showpic/e211dd2c5b02943360777fe386752db5;http://store.is.autonavi.com/showpic/cdabcce76053b498c39979b8eb82c539,传说中象雄王国的都城遗址。
125,扎日南木错北岸观景台,B0GRRSJIJ7,3A,风景名胜;风景名胜;观景点,扎日南木错,85.636776,31.031001,[],西藏自治区,阿里地区,措勤县,[],,https://aos-comment.amap.com/B0GRRSJIJ7/comment/content_media_external_images_media_248879_ss_2_1659846009012_3a17c5b4.jpg;https://aos-comment.amap.com/B0GRRSJIJ7/comment/d5f68f5627d31d1b3a3db342ac71907e_2048_2048_80.jpg;https://aos-comment.amap.com/B0GRRSJIJ7/comment/acd70feda155415e8ff1036d9a3ed4d2_2048_2048_80.jpg,观赏西藏第三大湖的绝佳位置。
126,尼洋阁,B0FFH0D29F,3A,风景名胜;风景名胜相关;旅游景点,八一镇娘乳岗,94.385698,29.617818,[],西藏自治区,林芝市,巴宜区,[],,http://store.is.autonavi.com/showpic/e8e3b0f89bd87655277d611805d105ea;http://store.is.autonavi.com/showpic/a57b104da5aa13f04365eb80e6534bcb;http://store.is.autonavi.com/showpic/e74fa77c09035edc71f130fb2b55c215,林芝的地标性建筑，藏东南文化博物馆。
127,秀巴千年古堡群,B0FFFEJHWN,3A,风景名胜;风景名胜相关;旅游景点,G4218林拉公路与秀巴停车区交叉口北约160米,93.716039,29.838037,0894-5412366;15208049202,西藏自治区,林芝市,工布江达县,[],,http://store.is.autonavi.com/showpic/93240931cbc0c6573e22854cd6489318;https://aos-comment.amap.com/B0FFFEJHWN/comment/a146888722134a944ee47703f432f13e_2048_2048_80.jpg;http://store.is.autonavi.com/showpic/536db283418ef64a017051ac1581f927,格萨尔王时期的古堡建筑。
128,岗云杉林,B0FFL3M7HT,3A,风景名胜;风景名胜;风景名胜,巴卡村,95.560417,29.878778,13889046175,西藏自治区,林芝市,波密县,[],,https://aos-comment.amap.com/B0FFL3M7HT/comment/88e2c1c16191062bfd981568625d33ed_2048_2048_80.jpg;https://aos-comment.amap.com/B0FFL3M7HT/comment/24aa2f6bd39551a3e13d3949f4dc12f4_2048_2048_80.jpg;http://store.is.autonavi.com/showpic/f9eb227c500245f8a1a5b5f2e3f12596,中国最美十大森林之一。
129,加查县千年核桃树王,B0LGVHSXB8,3A,风景名胜;风景名胜;风景名胜,亚洲规模最大的千年核桃林景区西侧,92.561622,29.151539,[],西藏自治区,山南市,加查县,[],,http://store.is.autonavi.com/showpic/47c0334a66ce08f57592485e38c14633;http://store.is.autonavi.com/showpic/b051b72c3fd9925eb2a087d4ecec9e6c,古老的核桃树，见证岁月变迁。
130,拉萨山庄,B0FFKVEUJH,3A,商务住宅;住宅区;住宅区,慈觉林乡文化旅游创意园区,91.148611,29.626487,[],西藏自治区,拉萨市,城关区,[],,http://store.is.autonavi.com/showpic/10166f74a1059bd199342b67bef50b9f;https://aos-comment.amap.com/B0FFKVEUJH/comment/e80c94b5ab702e90e1d3d92913bc2fbe_2048_2048_80.jpg;https://aos-comment.amap.com/B0FFKVEUJH/comment/5c713e422479cb7cc35984f7e589a894_2048_2048_80.jpg,休闲度假山庄。
131,察隅县英雄坡纪念园,B0L2ZH3X7I,3A,风景名胜;风景名胜;风景名胜,同庆小区背后上坡台地上,97.471248,28.665813,0894-5432155,西藏自治区,林芝市,察隅县,[],,https://aos-comment.amap.com/B0L2ZH3X7I/comment/EA3AA78E_DD16_4794_B79D_B664EEF789B2_L0_001_2000_150_1758177532660_78014852.jpg;https://store.is.autonavi.com/showpic/5dca59ddebd14058e481a45766a57f4e;https://aos-comment.amap.com/B0L2ZH3X7I/comment/4C321B89_B7BE_4D8D_B8B0_4F5F99F68BA9_L0_001_2000_150_1758177532660_51365067.jpg,纪念中印边境自卫反击战牺牲烈士。
132,拉萨门巴乡德仲村下温泉,B0FFFJDI2D,2A,风景名胜;风景名胜;风景名胜,德仲村,92.167722,30.150615,[],西藏自治区,拉萨市,墨竹工卡县,[],,https://aos-comment.amap.com/B0FFFJDI2D/comment/content_media_external_images_media_1000029784_ss__1734787375917_33960054.jpg;https://comment-oss-online.oss-cn-wulanchabu.aliyuncs.com/B0FFFJDI2D/comment/content_media_external_images_media_106678.jpg;https://comment-oss-online.oss-cn-wulanchabu.aliyuncs.com/B0FFFJDI2D/comment/content_media_external_images_media_106696.jpg,著名的药用温泉。
133,思金拉措(暂停开放),B0FFHSYL1L,2A,风景名胜;风景名胜;风景名胜,318国道东,92.367481,29.774856,15726799620,西藏自治区,山南市,桑日县,[],,https://aos-comment.amap.com/B0FFHSYL1L/comment/content_media_external_images_media_1000077530_ss__1731751709824_94199184.jpg;https://aos-comment.amap.com/B0FFHSYL1L/comment/2f98bcf3fe51004648dd5c2c457ea822_2048_2048_80.jpg;http://store.is.autonavi.com/showpic/53d85efa66855cd13cc2042b0474a8b9,著名的“财神湖”。
134,仓姑寺,B037B0OBG0,2A,风景名胜;风景名胜;寺庙道观,八廓街道林廓南路29号,91.136127,29.648001,[],西藏自治区,拉萨市,城关区,[],,https://aos-comment.amap.com/B037B0OBG0/comment/content_media_external_file_69707_ss__1756630975804_50083802.jpg;http://store.is.autonavi.com/showpic/5eb875b91813de593dec85a40f55d444;http://store.is.autonavi.com/showpic/837b5edd76024f90f8a7931bba268e2d,拉萨著名的尼姑寺，生活气息浓郁。
135,西藏甘露藏医药产业集团有限公司,B0FFHRSG5I,2A,公司企业;公司;医药公司,拉萨经济技术开发区林琼岗路15号行政楼3楼,91.016599,29.631584,13989091696,西藏自治区,拉萨市,堆龙德庆区,[],,http://store.is.autonavi.com/showpic/4c9f4a81b3858c211873d0591d94aebc;http://store.is.autonavi.com/showpic/fa5ae2396595166082a77fef8b5df70a;https://store.is.autonavi.com/showpic/0f7bd90ac5cb4de92ce4e1e755c134b7,知名的藏药企业。
136,西藏奇圣土特产品有限公司内部地面停车场,B0KAMU72O4,2A,交通设施服务;停车场;专用停车场,西藏奇圣土特产品有限公司鲜肉储备冻库,91.017752,29.638772,[],西藏自治区,拉萨市,堆龙德庆区,[],,,特产公司停车场。
137,西藏擦擦文化展览馆,B0FFLA9TRH,2A,科教文化服务;科教文化场所;科教文化场所,,91.15782,29.703898,[],西藏自治区,拉萨市,城关区,[],,http://store.is.autonavi.com/showpic/9ef4fdd2ff21ab59df5a19380786f457;http://store.is.autonavi.com/showpic/c9bf9dedd7e173475c02f0068930dd69;http://store.is.autonavi.com/showpic/f2095c979263d4d69591b1858c388372,展示擦擦艺术。
138,西藏娃哈哈食品有限公司,B037B0O9GO,2A,公司企业;公司;公司,拉萨经济技术开发区维色路,91.011764,29.62691,0891-6159333,西藏自治区,拉萨市,堆龙德庆区,[],,http://store.is.autonavi.com/showpic/156005d23e3bb6e0727250fee588c741,知名企业在西藏的分厂。
139,聂塘卓玛拉康,B037B01C15,2A,风景名胜;风景名胜;寺庙道观,318国道聂当乡帮那村,90.948585,29.529347,[],西藏自治区,拉萨市,曲水县,[],,https://aos-comment.amap.com/B037B01C15/comment/content_media_external_file_1000019882_ss__1755131978821_19911893.jpg;http://store.is.autonavi.com/showpic/d8f134fe1bfef679e8b7702823a62f34;https://aos-comment.amap.com/B037B01C15/comment/content_media_external_file_1000019873_ss__1755131978820_29242925.jpg,供奉度母的寺庙。
140,静苑农场,B0I6J51EGP,2A,公司企业;农林牧渔基地;其它农林牧渔基地,曲水县德吉村(残疾人托养中心旁),90.994899,29.56789,13398084789,西藏自治区,拉萨市,堆龙德庆区,[],,https://store.is.autonavi.com/showpic/4c5f83698af12a3caf12b56c4090648f;http://store.is.autonavi.com/showpic/7e6575ff9993d956cbb77d11ce1469c1,休闲农场。
141,上汽MG体验中心(城关青藏路店),B0LARSY076,2A,汽车维修;名爵维修;名爵维修,青藏路2号,91.006047,29.648476,0891-6532214,西藏自治区,拉萨市,堆龙德庆区,[],,,汽车体验中心。
142,甲玛林休闲广场,B0HR0AU2KR,2A,风景名胜;公园广场;城市广场,阳岛路5号,91.117435,29.643225,[],西藏自治区,拉萨市,城关区,[],,,休闲广场。
143,雄巴拉曲大道,BZ9WK8002B,2A,地名地址信息;交通地名;道路名,堆龙德庆区,90.938855,29.641011,[],西藏自治区,拉萨市,堆龙德庆区,[],,,城市道路。
144,桑珠曲顶寺,B0G2T54CZE,2A,风景名胜;风景名胜;寺庙道观,甲措雄乡,89.012783,29.25092,[],西藏自治区,日喀则市,桑珠孜区,[],,http://store.is.autonavi.com/showpic/16fbb7e566e1c9bb37af4e1ce216af22;http://store.is.autonavi.com/showpic/f30d00cd2b964fdc2b9afa699323e2b0;http://store.is.autonavi.com/showpic/b91f1237881de10d89509bb0abd166d3,具有历史的寺庙。
145,日嘉康乐园售楼部,B0L1DUUX6M,2A,生活服务;生活服务场所;生活服务场所,东郡康萨林南门旁,91.201525,29.657425,[],西藏自治区,拉萨市,城关区,[],,,房产售楼处。
146,卡若拉冰川景区售票处,B0GUXM7H9U,2A,生活服务;售票处;公园景点售票处,热龙乡卡若拉景区,90.175154,28.890272,[],西藏自治区,日喀则市,江孜县,[],,,冰川景区服务点。
147,扎桑寺,B0FFL3C041,2A,风景名胜;风景名胜;寺庙道观,番巴村,86.965325,29.339483,[],西藏自治区,日喀则市,昂仁县,[],,http://store.is.autonavi.com/showpic/0d0eb3a068a49b2b358b677da6f57737;http://store.is.autonavi.com/showpic/5a3f544d6f62864fceda89fe96d3a084;http://store.is.autonavi.com/showpic/a4f45c645d29024d46e80f35e3820e25,古老寺庙。
148,强堆乡色热珠德寺,B0FFKZ4JG6,2A,购物服务;购物相关场所;购物相关场所,强堆乡,89.339624,29.092621,[],西藏自治区,日喀则市,白朗县,[],,http://store.is.autonavi.com/showpic/5fe3b13f8e9b0b70649df68187ac6028;http://store.is.autonavi.com/showpic/bf072841639b500d1c5d6acc3aed1c26;http://store.is.autonavi.com/showpic/cb4ec4452dcfc5cd40d060fa2add6f59,乡间寺庙。
149,参卓林寺,B0FFL839QX,2A,风景名胜;风景名胜;寺庙道观,嘎东镇马义村,89.177631,29.212593,[],西藏自治区,日喀则市,白朗县,[],,https://aos-comment.amap.com/B0FFL839QX/headerImg/d2bbefef6039ec12e52dd739b7863300_2048_2048_80.jpg;https://aos-comment.amap.com/B0FFL839QX/headerImg/4c0fd8312a7948e17a697b07e9c42a8d_2048_2048_80.jpg;https://aos-comment.amap.com/B0FFL839QX/headerImg/2af87c00d628f58f9c3f5234f61f378b_2048_2048_80.jpg,宗教场所。
150,亚东真桑寺,B0FFKZF9TH,2A,风景名胜;风景名胜;寺庙道观,,89.228523,28.089377,[],西藏自治区,日喀则市,亚东县,[],,http://store.is.autonavi.com/showpic/7862a9fd2c5dbab3e68bd649a9fba9e8;http://store.is.autonavi.com/showpic/1450030c0f5684d5227d6fb6dfa0e3e8;http://store.is.autonavi.com/showpic/e472f83606d6a478a4ee0bd2acec013a,亚东县寺庙。
151,聂拉木县,B037C00TT8,2A,地名地址信息;普通地名;区县级地名,聂拉木县,85.982237,28.155186,[],西藏自治区,日喀则市,聂拉木县,[],,https://aos-comment.amap.com/B037C00TT8/comment/3F20D85F_7600_496B_A1AE_EBF58D109503_L0_001_2016_151_1753890097901_41596719.jpg;https://aos-comment.amap.com/B037C00TT8/comment/content_media_external_images_media_35295_ss__1729127845984_17770598.jpg;https://aos-comment.amap.com/B037C00TT8/comment/62FC582A_3FA8_4073_8944_BCE768E9EF6F_L0_001_2000_150_1753890097916_74021935.jpg,边境县，自然风光壮美。
152,哲古湖,B037D0MLSI,2A,风景名胜;风景名胜相关;旅游景点,哲古村,91.640957,28.708907,[],西藏自治区,山南市,措美县,[],,http://store.is.autonavi.com/showpic/5be7e30c0893fb13d9b8709197ec0f86;https://aos-comment.amap.com/B037D0MLSI/comment/content_media_external_images_media_1000002874_ss__1742366681988_09790817.jpg;http://store.is.autonavi.com/showpic/1912f88b83df8bf96489565bd76f98b8,不仅有湖，周边还有草原和野生动物。
153,山南扎央宗溶洞,B0FFJ8L61F,2A,风景名胜;风景名胜;风景名胜,,91.253088,29.390838,[],西藏自治区,山南市,扎囊县,[],,https://aos-comment.amap.com/B0FFJ8L61F/comment/db491d1b82b507f661aa555107a85c78_2048_2048_80.jpg;https://aos-comment.amap.com/B0FFJ8L61F/comment/content_media_external_file_1000022467_ss__1756128115367_55929904.jpg;https://aos-comment.amap.com/B0FFJ8L61F/comment/content_media_external_file_1000022521_ss__1756128115391_58382705.jpg,充满传奇色彩的溶洞。
154,宗贡布溶洞,B0FFF360M7,2A,风景名胜;风景名胜相关;旅游景点,,91.3105,29.370342,[],西藏自治区,山南市,扎囊县,[],,http://store.is.autonavi.com/showpic/c67c5c63d7286c27f15d8b0436591a90;https://aos-comment.amap.com/B0FFF360M7/comment/613f83fe8bc42ab05289be22e0155f4d_2048_2048_80.jpg;https://aos-comment.amap.com/B0FFF360M7/comment/9fd502563b7786514fb79196f442b945_2048_2048_80.jpg,自然形成的溶洞奇观。
155,卡久寺,B0FFKKQDTZ,2A,风景名胜;风景名胜;寺庙道观,拉康镇,91.123212,28.090544,[],西藏自治区,山南市,洛扎县,[],,http://store.is.autonavi.com/showpic/377bb743cfab844cdf2fbabe0d78c9e9;http://store.is.autonavi.com/showpic/f56e07d3a7d3822a94e5dddcad88d85a;http://store.is.autonavi.com/showpic/54e543bc649fdb5677996aed5aa76c41,位于山巅，云雾缭绕，修行圣地。
156,莽措湖,B0LDUREF16,2A,风景名胜;风景名胜;风景名胜,,98.840405,29.534731,[],西藏自治区,昌都市,芒康县,[],,https://store.is.autonavi.com/showpic/e5e0c2fc5e123fea6ba0dbb8bd5e6087;https://store.is.autonavi.com/showpic/039a0dcd96893db8861afaeccdee21cb;https://store.is.autonavi.com/showpic/7b175ecba6e01da6d700e05233f8469a,高山湖泊，景色纯净。
157,尼果寺,B0G2ZCEJCO,2A,风景名胜;风景名胜;寺庙道观,宗西乡,98.748495,29.901992,[],西藏自治区,昌都市,芒康县,[],,http://store.is.autonavi.com/showpic/53a8066f9ba226d31dac69405e33b836;http://store.is.autonavi.com/showpic/571a452a23123294cd0b3eeb753a4dc9;http://store.is.autonavi.com/showpic/5f2e3ee337eaa49261199c4041bf99be,隐秘的寺庙。
158,鲁固商场,B0JKRX09T4,A,购物服务;家居建材市场;建材五金市场,鲁固路与鲁固二巷交叉口南20米,91.129767,29.648201,[],西藏自治区,拉萨市,城关区,[],,,购物商场。
159,帕索寺,B0FFKZFJSM,A,风景名胜;风景名胜;回教寺,西藏自治区日喀则市桑珠孜区,89.561606,29.279278,[],西藏自治区,日喀则市,桑珠孜区,[],,,寺庙。
160,长美坚寺,B0LRZ92P9D,A,风景名胜;风景名胜;寺庙道观,广场街西段与208县道交叉口西280米,89.262048,29.101524,[],西藏自治区,日喀则市,白朗县,[],,http://store.is.autonavi.com/showpic/5b2162649d51b3acc247cfa659d7fa10;http://store.is.autonavi.com/showpic/2ac155fc65089a826c307a949c646586;http://store.is.autonavi.com/showpic/790c30f2879a2ae1eec720442834c6d0,寺庙。
161,皓寺,B0FFF35T5I,A,风景名胜;风景名胜;寺庙道观,,89.444595,29.273748,[],西藏自治区,日喀则市,桑珠孜区,[],,http://store.is.autonavi.com/showpic/a59a3cd04ef40fd02970914bb77b5fa8;http://store.is.autonavi.com/showpic/c88a3dc05998f85b08ab66d7f3cfc779;http://store.is.autonavi.com/showpic/c6a035de7b4102323d181d94006adc54,寺庙。
162,索布康,B0FFJ0G82L,A,风景名胜;风景名胜相关;旅游景点,北京西路276号哲蚌寺内,91.0505,29.673722,[],西藏自治区,拉萨市,城关区,[],,,地名或建筑。
163,南木林县森都寺,B0FFLEW46G,A,风景名胜;风景名胜;寺庙道观,西藏自治区日喀则市南木林县,89.269757,29.670647,[],西藏自治区,日喀则市,南木林县,[],,,南木林县的寺庙。
164,雄雄金刚寺,B0FFLEVX2Z,A,风景名胜;风景名胜;寺庙道观,,89.139627,29.674223,[],西藏自治区,日喀则市,南木林县,[],,,寺庙。
165,达那寺,B0LUOHGG80,A,生活服务;生活服务场所;生活服务场所,圭仓朵村附近,92.694086,31.427583,[],西藏自治区,那曲市,色尼区,[],,http://store.is.autonavi.com/showpic/cb4dbfffc399eee0e7a6159aae3e3b8f;http://store.is.autonavi.com/showpic/fb584038745b227761b76fbb32549781;http://store.is.autonavi.com/showpic/30bd4c8dcf7b102d061fcfe3c27143cc,寺庙。
166,热龙寺,B037C0OTLJ,A,风景名胜;风景名胜;风景名胜,热龙乡,90.101538,28.830371,[],西藏自治区,日喀则市,江孜县,[],,https://store.is.autonavi.com/showpic/d32321100cfef5db913c9133721a5e6b;https://store.is.autonavi.com/showpic/411cb356676673ba93d028af0aba512d;https://store.is.autonavi.com/showpic/4cae9c3dce50dcd960426bbff220b47d,寺庙。
167,聂拉木县,B037C00TT8,A,地名地址信息;普通地名;区县级地名,聂拉木县,85.982237,28.155186,[],西藏自治区,日喀则市,聂拉木县,[],,https://aos-comment.amap.com/B037C00TT8/comment/3F20D85F_7600_496B_A1AE_EBF58D109503_L0_001_2016_151_1753890097901_41596719.jpg;https://aos-comment.amap.com/B037C00TT8/comment/content_media_external_images_media_35295_ss__1729127845984_17770598.jpg;https://aos-comment.amap.com/B037C00TT8/comment/62FC582A_3FA8_4073_8944_BCE768E9EF6F_L0_001_2000_150_1753890097916_74021935.jpg,边境县，自然风光壮美。
